[
  {
    "name": "Bitcoin Beach",
    "city": "El Zonte, La Libertad ðŸ‡¸ðŸ‡»",
    "country": "El Salvador",
    "region": "Latin America",
    "lat": 13.493,
    "lon": -89.38,
    "link": "https://x.com/bitcoinbeach",
    "note": "Original circular economy.",
    "last_contact": "",
    "contact_person": "",
    "channel": ""
  },
{
    "name": "Bitcoin BerlÃ­n",
    "city": "BerlÃ­n, UsulutÃ¡n ðŸ‡¸ðŸ‡»",
    "country": "El Salvador",
    "region": "Latin America",
    "lat": 13.49786,
    "lon": -88.53050038066988,
    "link": "https://x.com/BitcoinBerlinSV",
    "note": "Up in the mountains.",
    "last_contact": "",
    "contact_person": "",
    "channel": ""
  },
{
    "name": "Bitcoin Lake",
    "city": "Panajachel, SololÃ¡ ðŸ‡¬ðŸ‡¹",
    "country": "Guatemala",
    "region": "Latin America",
    "lat": 14.744608608252687,
    "lon": -91.1527182186598,
    "link": "https://x.com/LakeBitcoin",
    "note": "Lake Circular Economy.",
    "last_contact": "",
    "contact_person": "",
    "channel": ""
  },
{
    "name": "Bitcoin Jungle",
    "city": "Uvita, Puntarenas ðŸ‡¨ðŸ‡·",
    "country": "Costa Rica",
    "region": "Latin America",
    "lat": 9.167268405681991,
    "lon": -83.73629599240552,
    "link": "https://x.com/BitcoinJungleCR",
    "note": "Jungle Circular Economy.",
    "last_contact": "",
    "contact_person": "",
    "channel": ""
  }
]
